[
  {
    "id":1,
    "type":"Personal Houses",
    "title":"Charles Johnson",
    "notes":"#1 Mirror Park Lane - Part of the Chang Gang.",
    "order":1,
    "lat":68.370,
    "lng":-114.289
  },
  {
    "id":2,
    "type":"Personal Houses",
    "title":"Siz Fulker",
    "notes":"#9999 Mirror Park Lane - Part of the Tang Gang.",
    "order":2,
    "lat":67.063,
    "lng":-114.916
  },
  {
    "id":3,
    "type":"Personal Houses",
    "title":"Al Saab",
    "notes":"#16 Grove Street - Part of the Leanbois.",
    "order":3,
    "lat":62.383,
    "lng":-125.049
  },
  {
    "id":4,
    "type":"Personal Houses",
    "title":"Lang Buddha",
    "notes":"#17 Grove Street - Part of the Leanbois.",
    "order":4,
    "lat":62.346,
    "lng":-124.836
  },
  {
    "id":5,
    "type":"Headquaters",
    "title":"Chang Gang Mansion",
    "notes":"Owned by Vinny Pistone, for usage by Chang Gang",
    "order":5,
    "lat":70.649,
    "lng":-143.968
  }
]